{"type":"FeatureCollection","features":[{"type":"Feature","geometry":{"type":"Point","coordinates":[16.97819633051261,51.1263106]},"properties":{"district":"Fax(kier. 71)","name":"Nazwa jednostki organizacyjnej"}},{"type":"Feature","geometry":{"type":"Point","coordinates":[17.054200157921695,51.13752695]},"properties":{"district":"7984246","name":"Przedszkole nr 1 Planeta Uśmiechu"}},{"type":"Feature","geometry":{"type":"Point","coordinates":[17.0938753,51.1091893]},"properties":{"district":"","name":"Przedszkole nr 2 Tajemniczy Ogród"}},{"type":"Feature","geometry":{"type":"Point","coordinates":[19.2387436,50.0732803]},"properties":{"district":"7984282","name":"Przedszkole nr 3 Wesoła Trójeczka"}},{"type":"Feature","geometry":{"type":"Point","coordinates":[17.0084015,51.0893424]},"properties":{"district":"7984288","name":"Przedszkole nr 4"}},{"type":"Feature","geometry":{"type":"Point","coordinates":[16.94574703939425,51.125797649999996]},"properties":{"district":"7984435","name":"Przedszkole nr 5 Wrocławskie Krasnale"}},{"type":"Feature","geometry":{"type":"Point","coordinates":[17.1111652,51.098447]},"properties":{"district":"7984303","name":"Przedszkole nr 6 Nad Odrą"}},{"type":"Feature","geometry":{"type":"Point","coordinates":[16.89191685116348,51.15331105]},"properties":{"district":"7984247","name":"Przedszkole nr 10 Przedszkole na każdą pogodę"}},{"type":"Feature","geometry":{"type":"Point","coordinates":[17.05332707443258,51.0991957]},"properties":{"district":"7984259","name":"Przedszkole Integracyjne nr 12 im. Diany, Księżnej Walii"}},{"type":"Feature","geometry":{"type":"Point","coordinates":[17.0896091,51.1221238]},"properties":{"district":"7984266","name":"Przedszkole nr 13"}},{"type":"Feature","geometry":{"type":"Point","coordinates":[17.080302526136364,51.13224085]},"properties":{"district":"7984436","name":"Przedszkole nr 14 Kowaliki"}},{"type":"Feature","geometry":{"type":"Point","coordinates":[16.867898147914183,51.14686665000001]},"properties":{"district":"7984437","name":"Przedszkole nr 15 im. Kardynała Joachima Meisnera"}},{"type":"Feature","geometry":{"type":"Point","coordinates":[17.1221162,51.1605337]},"properties":{"district":"","name":"Przedszkole nr 17"}},{"type":"Feature","geometry":{"type":"Point","coordinates":[20.4335094,49.9631888]},"properties":{"district":"7984275","name":"Przedszkole nr 18 Wiolinek"}},{"type":"Feature","geometry":{"type":"Point","coordinates":[17.0346245,51.1301296]},"properties":{"district":"7984277","name":"Przedszkole nr 21"}},{"type":"Feature","geometry":{"type":"Point","coordinates":[16.941586354441966,51.09870385]},"properties":{"district":"7984278","name":"Przedszkole nr 22 Muchoborek"}},{"type":"Feature","geometry":{"type":"Point","coordinates":[17.0038003,51.0595102]},"properties":{"district":"","name":"Przedszkole nr 23"}},{"type":"Feature","geometry":{"type":"Point","coordinates":[19.5462719,49.9786167]},"properties":{"district":"7984279","name":"Przedszkole nr 25 Słowiańskie Maluchy"}},{"type":"Feature","geometry":{"type":"Point","coordinates":[16.943806687526074,51.141186149999996]},"properties":{"district":"","name":"Przedszkole nr 26 Sportowa Kraina"}},{"type":"Feature","geometry":{"type":"Point","coordinates":[17.006934961142854,51.080987050000005]},"properties":{"district":"7984281","name":"Przedszkole nr 28 Fantazja"}},{"type":"Feature","geometry":{"type":"Point","coordinates":[20.1955525,49.9005434]},"properties":{"district":"7984284","name":"Przedszkole nr 33 Staromiejskie"}},{"type":"Feature","geometry":{"type":"Point","coordinates":[17.0631305,51.1174508]},"properties":{"district":"7984285","name":"Przedszkole nr 34 im. Polskiego Czerwonego Krzyża"}},{"type":"Feature","geometry":{"type":"Point","coordinates":[17.04634604079491,51.10114635]},"properties":{"district":"7984286","name":"Przedszkole nr 35 z oddziałami integracyjnymi Tęczowy Domek"}},{"type":"Feature","geometry":{"type":"Point","coordinates":[17.075771470291322,51.1124846]},"properties":{"district":"7984287","name":"Przedszkole nr 36 im. Wandy Chmielowskiej"}},{"type":"Feature","geometry":{"type":"Point","coordinates":[17.01555,51.1112581]},"properties":{"district":"7984289","name":"Przedszkole nr 41 im. Jana Pawła II"}},{"type":"Feature","geometry":{"type":"Point","coordinates":[22.3422773,50.3265027]},"properties":{"district":"","name":"Przedszkole nr 43 Kolorowe"}},{"type":"Feature","geometry":{"type":"Point","coordinates":[17.074815,51.1158611]},"properties":{"district":"7984291","name":"Przedszkole nr 47 Leśny Ludek"}},{"type":"Feature","geometry":{"type":"Point","coordinates":[17.071414758411198,51.109096199999996]},"properties":{"district":"","name":"Przedszkole nr 48"}},{"type":"Feature","geometry":{"type":"Point","coordinates":[17.03355174046145,51.080253400000004]},"properties":{"district":"7984293","name":"Przedszkole nr 49 im. Tysiąclecia Miasta Wrocławia"}},{"type":"Feature","geometry":{"type":"Point","coordinates":[17.03560041378076,51.095226100000005]},"properties":{"district":"7984294","name":"Przedszkole nr 50Mały Kolejarz"}},{"type":"Feature","geometry":{"type":"Point","coordinates":[17.0777084,51.0644505]},"properties":{"district":"7984295","name":"Przedszkole nr 51 Kolorowy Początek"}},{"type":"Feature","geometry":{"type":"Point","coordinates":[17.0120058,51.0922629]},"properties":{"district":"","name":"Przedszkole nr 52 Gołąbki Pocztowe"}},{"type":"Feature","geometry":{"type":"Point","coordinates":[17.0835908,51.1027961]},"properties":{"district":"7984297","name":"Przedszkole nr 54 Pod Kasztanami"}},{"type":"Feature","geometry":{"type":"Point","coordinates":[19.2386591,50.072057]},"properties":{"district":"7984298","name":"Przedszkole nr 55"}},{"type":"Feature","geometry":{"type":"Point","coordinates":[16.9807212,51.0638899]},"properties":{"district":"7984299","name":"Przedszkole nr 56Niezapominajka"}},{"type":"Feature","geometry":{"type":"Point","coordinates":[17.083197837334353,51.0737355]},"properties":{"district":"7984300","name":"Przedszkole nr 57 Mały Książę"}},{"type":"Feature","geometry":{"type":"Point","coordinates":[16.956002653005683,51.107770450000004]},"properties":{"district":"7984301","name":"Przedszkole nr 58"}},{"type":"Feature","geometry":{"type":"Point","coordinates":[16.989369637494054,51.09388235]},"properties":{"district":"7984302","name":"Przedszkole nr 59 U Krasnala pod Narcyzem"}},{"type":"Feature","geometry":{"type":"Point","coordinates":[17.00233417359975,51.0825752]},"properties":{"district":"7986804","name":"Przedszkole nr 61 Gajowickie Skrzaty"}},{"type":"Feature","geometry":{"type":"Point","coordinates":[16.899029529707196,51.16423745]},"properties":{"district":"7984305","name":"Przedszkole nr 62 Stumilowy Las"}},{"type":"Feature","geometry":{"type":"Point","coordinates":[17.0361467,51.1118595]},"properties":{"district":"7984307","name":"Przedszkole nr 65 Pod Wesołym Koziołkiem"}},{"type":"Feature","geometry":{"type":"Point","coordinates":[16.87069788221229,51.14128805]},"properties":{"district":"7984308","name":"Przedszkole nr 66 Bajkolandia"}},{"type":"Feature","geometry":{"type":"Point","coordinates":[17.0629044,51.133339]},"properties":{"district":"7984309","name":"Przedszkole Integracyjne nr 68 im. Roku 2000"}},{"type":"Feature","geometry":{"type":"Point","coordinates":[17.119062533541488,51.14659415]},"properties":{"district":"7984310","name":"Przedszkole nr 71 Chatka Małego Skrzatka"}},{"type":"Feature","geometry":{"type":"Point","coordinates":[21.694258356980377,49.676797050000005]},"properties":{"district":"3279044","name":"Przedszkole nr 74 Mały Piekarczyk"}},{"type":"Feature","geometry":{"type":"Point","coordinates":[17.038524114887885,51.1200858]},"properties":{"district":"7984313","name":"Przedszkole nr 77 Tęczowe Siódemki"}},{"type":"Feature","geometry":{"type":"Point","coordinates":[17.0541629,51.1139268]},"properties":{"district":"7984314","name":"Przedszkole nr 79"}},{"type":"Feature","geometry":{"type":"Point","coordinates":[17.0195676823125,51.09722735]},"properties":{"district":"7984315","name":"Przedszkole nr 80 Zielona Dolinka"}},{"type":"Feature","geometry":{"type":"Point","coordinates":[17.0400103655,51.1392165]},"properties":{"district":"7984316","name":"Przedszkole nr 82"}},{"type":"Feature","geometry":{"type":"Point","coordinates":[17.0192498,51.1063281]},"properties":{"district":"7984317","name":"Przedszkole nr 87 Wrocławskie Dzieciaki"}},{"type":"Feature","geometry":{"type":"Point","coordinates":[17.00898840592878,51.0983474]},"properties":{"district":"7984318","name":"Przedszkole nr 88"}},{"type":"Feature","geometry":{"type":"Point","coordinates":[17.003418337432784,51.0992028]},"properties":{"district":"7984319","name":"Przedszkole Integracyjne nr 89 im. Juliana Tuwima"}},{"type":"Feature","geometry":{"type":"Point","coordinates":[17.0144298587425,51.096039950000005]},"properties":{"district":"7984320","name":"Przedszkole nr 90 im. Lucyny Krzemienieckiej"}},{"type":"Feature","geometry":{"type":"Point","coordinates":[17.01604629699461,51.093054699999996]},"properties":{"district":"7984321","name":"Przedszkole nr 91 Nasz Domek"}},{"type":"Feature","geometry":{"type":"Point","coordinates":[17.048680503928864,51.0814436]},"properties":{"district":"7984322","name":"Przedszkole nr 92"}},{"type":"Feature","geometry":{"type":"Point","coordinates":[17.006043241824056,51.09648555]},"properties":{"district":"7984323","name":"Przedszkole Integracyjne nr 93 im. Jana Brzechwy"}},{"type":"Feature","geometry":{"type":"Point","coordinates":[16.9990238,51.099434]},"properties":{"district":"7984324","name":"Przedszkole nr 94 Plastusiowy Domek"}},{"type":"Feature","geometry":{"type":"Point","coordinates":[14.7925386,52.1916696]},"properties":{"district":"7984325","name":"Przedszkole nr 95"}},{"type":"Feature","geometry":{"type":"Point","coordinates":[16.98536563633153,51.092835050000005]},"properties":{"district":"","name":"Przedszkole nr 96 Pod Wesołym Słonkiem"}},{"type":"Feature","geometry":{"type":"Point","coordinates":[17.01446806832616,51.1137846]},"properties":{"district":"7984327","name":"Przedszkole nr 99"}},{"type":"Feature","geometry":{"type":"Point","coordinates":[17.0164978125,51.17786955]},"properties":{"district":"7984248","name":"Przedszkole nr 100"}},{"type":"Feature","geometry":{"type":"Point","coordinates":[17.0099079,51.114986]},"properties":{"district":"7984249","name":"Przedszkole nr 102"}},{"type":"Feature","geometry":{"type":"Point","coordinates":[16.995220787947453,51.123368049999996]},"properties":{"district":"7984250","name":"Przedszkole nr 104 Na Misiowej Polanie"}},{"type":"Feature","geometry":{"type":"Point","coordinates":[17.112081103181858,51.14791265]},"properties":{"district":"7984251","name":"Przedszkole nr 106 im. Heleny Bechlerowej"}},{"type":"Feature","geometry":{"type":"Point","coordinates":[17.016664916421202,51.098503699999995]},"properties":{"district":"7984252","name":"Przedszkole nr 107 Słoneczko"}},{"type":"Feature","geometry":{"type":"Point","coordinates":[17.023185227576764,51.0918097]},"properties":{"district":"","name":"Przedszkole nr 108"}},{"type":"Feature","geometry":{"type":"Point","coordinates":[19.2387436,50.0732803]},"properties":{"district":"7984254","name":"Przedszkole nr 109 z oddziałami integracyjnymi"}},{"type":"Feature","geometry":{"type":"Point","coordinates":[16.9741326,51.1370381]},"properties":{"district":"7984255","name":"Przedszkole nr 110 Domek Krasnoludków"}},{"type":"Feature","geometry":{"type":"Point","coordinates":[16.9723685,51.1286187]},"properties":{"district":"7984256","name":"Przedszkole nr 113 Akademia Przedszkolaka"}},{"type":"Feature","geometry":{"type":"Point","coordinates":[16.9768661,51.0929191]},"properties":{"district":"7984257","name":"Przedszkole nr 117 Fiołkowa Kraina"}},{"type":"Feature","geometry":{"type":"Point","coordinates":[17.036269045181335,51.090376449999994]},"properties":{"district":"","name":"Przedszkole nr 119 Zielona Łąka"}},{"type":"Feature","geometry":{"type":"Point","coordinates":[16.906400138830136,52.409231199999994]},"properties":{"district":"7984260","name":"Przedszkole nr 121 Zielone Przedszkole"}},{"type":"Feature","geometry":{"type":"Point","coordinates":[16.9842258,51.1235605]},"properties":{"district":"7984261","name":"Przedszkole nr 122 Wesoła Gromadka"}},{"type":"Feature","geometry":{"type":"Point","coordinates":[16.959441398671757,51.11447445]},"properties":{"district":"7984262","name":"Przedszkole nr 123"}},{"type":"Feature","geometry":{"type":"Point","coordinates":[17.12027860668762,51.15429915]},"properties":{"district":"7984263","name":"Przedszkole nr 124 im. Marii Konopnickiej"}},{"type":"Feature","geometry":{"type":"Point","coordinates":[17.012186589881836,51.1175281]},"properties":{"district":"7984264","name":"Przedszkole Integracyjne nr 125 im. Janusza Korczaka"}},{"type":"Feature","geometry":{"type":"Point","coordinates":[17.021524026878264,51.138183299999994]},"properties":{"district":"7984265","name":"Przedszkole nr 126 Różanka"}},{"type":"Feature","geometry":{"type":"Point","coordinates":[17.041630688171807,51.09076115]},"properties":{"district":"7984267","name":"Przedszkole nr 136 Mały Sportowiec"}},{"type":"Feature","geometry":{"type":"Point","coordinates":[17.12769812952454,51.13542885]},"properties":{"district":"","name":"Przedszkole nr 140 Pod Platanem"}},{"type":"Feature","geometry":{"type":"Point","coordinates":[17.0440197,51.1052294]},"properties":{"district":"7984270","name":"Przedszkole nr 146 Wyspa Dzieci"}},{"type":"Feature","geometry":{"type":"Point","coordinates":[16.9562663,51.1177089]},"properties":{"district":"7984272","name":"Przedszkole nr 148"}},{"type":"Feature","geometry":{"type":"Point","coordinates":[17.0328225,51.1366525]},"properties":{"district":"7984273","name":"Przedszkole nr 149 Tęczowa Polanka"}},{"type":"Feature","geometry":{"type":"Point","coordinates":[16.9674046,51.1414034]},"properties":{"district":"7984274","name":"Przedszkole nr 150 Wesołe Nutki"}}]}